NMEA Sentence Code,UTC Time,Status,Latitude,Latitude Direction,Longitude,Longitude Direction,Speed (knots),Track Angle (degrees true),Date,MagneticVariation,Magnetic Variation Direction,[FAA Mode]-Optional,Checksum
$GPRMC,015204.9,A,3255.215798,N,11713.835992,W,23.0,324.1,220310,,,A*48
$GPRMC,015207.9,A,3255.229087,N,11713.844421,W,17.4,331.9,220310,,,A*41
$GPRMC,015231.9,A,3255.233306,N,11713.847421,W,5.6,299.0,220310,,,A*7D
$GPRMC,015234.9,A,3255.238362,N,11713.856787,W,9.0,296.0,220310,,,A*7B
$GPRMC,015237.9,A,3255.233708,N,11713.869397,W,12.4,266.0,220310,,,A*43
$GPRMC,015240.9,A,3255.217416,N,11713.887839,W,21.6,230.3,220310,,,A*44
$GPRMC,015243.9,A,3255.194624,N,11713.913800,W,31.1,223.5,220310,,,A*48
$GPRMC,015246.9,A,3255.172415,N,11713.935976,W,32.9,224.2,220310,,,A*4A
$GPRMC,015249.9,A,3255.152885,N,11713.962017,W,33.9,231.1,220310,,,A*48
$GPRMC,015252.9,A,3255.138177,N,11713.983415,W,27.8,233.3,220310,,,A*47
$GPRMC,015255.9,A,3255.127282,N,11714.002321,W,21.2,235.6,220310,,,A*4F
$GPRMC,015258.9,A,3255.114905,N,11714.022819,W,23.7,234.8,220310,,,A*4C
$GPRMC,015301.9,A,3255.100868,N,11714.044429,W,28.4,231.7,220310,,,A*43
$GPRMC,015304.9,A,3255.085487,N,11714.067032,W,29.6,231.2,220310,,,A*4E
$GPRMC,015312.9,A,3255.053546,N,11714.111338,W,19.3,222.5,220310,,,A*44
$GPRMC,015342.9,A,3255.050615,N,11714.113036,W,7.9,202.0,220310,,,A*7A
$GPRMC,015345.9,A,3255.043115,N,11714.111218,W,8.4,180.4,220310,,,A*7B
$GPRMC,015348.9,A,3255.031574,N,11714.099058,W,12.4,147.1,220310,,,A*42
$GPRMC,015351.9,A,3255.013283,N,11714.072046,W,23.1,134.1,220310,,,A*4C
$GPRMC,015354.9,A,3254.981435,N,11714.016910,W,45.4,128.8,220310,,,A*48
$GPRMC,015357.9,A,3254.951994,N,11713.970549,W,49.8,128.5,220310,,,A*43
$GPRMC,015400.9,A,3254.922718,N,11713.928436,W,51.0,130.4,220310,,,A*45
$GPRMC,015403.9,A,3254.891098,N,11713.887599,W,55.0,135.1,220310,,,A*44
$GPRMC,015406.9,A,3254.852655,N,11713.851145,W,58.9,142.6,220310,,,A*44
$GPRMC,015409.9,A,3254.810846,N,11713.816228,W,61.8,145.9,220310,,,A*49
$GPRMC,015412.9,A,3254.763945,N,11713.785034,W,64.2,150.9,220310,,,A*4B
$GPRMC,015415.9,A,3254.716500,N,11713.756206,W,61.9,152.4,220310,,,A*4F
$GPRMC,015418.9,A,3254.672601,N,11713.729487,W,57.9,152.6,220310,,,A*43
$GPRMC,015421.9,A,3254.629098,N,11713.707455,W,56.3,155.8,220310,,,A*40
$GPRMC,015424.9,A,3254.586038,N,11713.684148,W,55.9,155.1,220310,,,A*4A
$GPRMC,015427.9,A,3254.544476,N,11713.659620,W,56.1,153.8,220310,,,A*44
$GPRMC,015430.9,A,3254.503499,N,11713.634808,W,55.7,153.1,220310,,,A*43
$GPRMC,015433.9,A,3254.461969,N,11713.609088,W,55.7,152.8,220310,,,A*41
$GPRMC,015436.9,A,3254.421119,N,11713.583749,W,55.7,152.4,220310,,,A*48
$GPRMC,015439.9,A,3254.379418,N,11713.558845,W,56.1,153.3,220310,,,A*4F
$GPRMC,015442.9,A,3254.337004,N,11713.534251,W,55.7,153.2,220310,,,A*41
$GPRMC,015445.9,A,3254.295386,N,11713.508401,W,55.7,151.9,220310,,,A*43
$GPRMC,015448.9,A,3254.254970,N,11713.480281,W,56.8,149.3,220310,,,A*40
$GPRMC,015451.9,A,3254.216240,N,11713.448350,W,57.2,143.3,220310,,,A*4E
$GPRMC,015454.9,A,3254.179906,N,11713.410902,W,58.1,138.0,220310,,,A*4B
$GPRMC,015457.9,A,3254.143882,N,11713.371081,W,58.7,136.9,220310,,,A*4F
$GPRMC,015500.9,A,3254.109081,N,11713.330098,W,58.9,137.0,220310,,,A*42
$GPRMC,015503.9,A,3254.073244,N,11713.291240,W,59.3,137.2,220310,,,A*42
$GPRMC,015506.9,A,3254.036595,N,11713.249791,W,59.2,136.7,220310,,,A*44
$GPRMC,015509.9,A,3254.000987,N,11713.208014,W,59.8,136.2,220310,,,A*41
$GPRMC,015512.9,A,3253.962343,N,11713.169254,W,59.8,138.9,220310,,,A*44
$GPRMC,015515.9,A,3253.924811,N,11713.131429,W,60.8,140.4,220310,,,A*44
$GPRMC,015518.9,A,3253.885034,N,11713.093218,W,62.0,141.2,220310,,,A*4C
$GPRMC,015521.9,A,3253.843750,N,11713.055769,W,61.2,142.3,220310,,,A*43
$GPRMC,015524.9,A,3253.804458,N,11713.019607,W,60.2,142.2,220310,,,A*4F
$GPRMC,015527.9,A,3253.767121,N,11712.982392,W,59.5,140.0,220310,,,A*43
$GPRMC,015530.9,A,3253.730258,N,11712.942225,W,59.4,136.5,220310,,,A*4E
$GPRMC,015533.9,A,3253.696528,N,11712.899795,W,59.0,133.1,220310,,,A*4C
$GPRMC,015536.9,A,3253.663079,N,11712.856237,W,58.9,130.2,220310,,,A*44
$GPRMC,015539.9,A,3253.634799,N,11712.809661,W,57.6,125.3,220310,,,A*48
$GPRMC,015542.9,A,3253.609660,N,11712.761619,W,57.1,120.7,220310,,,A*45
$GPRMC,015545.9,A,3253.587130,N,11712.712436,W,57.6,119.0,220310,,,A*44
$GPRMC,015548.9,A,3253.564591,N,11712.660135,W,58.5,116.4,220310,,,A*4E
$GPRMC,015551.9,A,3253.543330,N,11712.607391,W,58.4,114.7,220310,,,A*43
$GPRMC,015554.9,A,3253.523751,N,11712.554418,W,57.9,114.6,220310,,,A*43
$GPRMC,015557.9,A,3253.501873,N,11712.501999,W,57.9,117.7,220310,,,A*49
$GPRMC,015600.9,A,3253.476378,N,11712.454881,W,57.7,122.8,220310,,,A*47
$GPRMC,015603.9,A,3253.447320,N,11712.408365,W,57.6,127.5,220310,,,A*4A
$GPRMC,015606.9,A,3253.415793,N,11712.365566,W,57.1,132.2,220310,,,A*49
$GPRMC,015609.9,A,3253.382766,N,11712.326346,W,56.8,136.2,220310,,,A*4A
$GPRMC,015612.9,A,3253.345774,N,11712.290097,W,56.7,142.0,220310,,,A*45
$GPRMC,015615.9,A,3253.306971,N,11712.258464,W,56.7,146.2,220310,,,A*44
$GPRMC,015618.9,A,3253.266540,N,11712.230118,W,56.7,151.0,220310,,,A*44
$GPRMC,015621.9,A,3253.223096,N,11712.206191,W,57.4,155.8,220310,,,A*4B
$GPRMC,015624.9,A,3253.176498,N,11712.186055,W,58.7,160.5,220310,,,A*42
$GPRMC,015627.9,A,3253.128224,N,11712.171940,W,58.9,164.8,220310,,,A*49
$GPRMC,015630.9,A,3253.079457,N,11712.157227,W,58.9,165.8,220310,,,A*47
$GPRMC,015633.9,A,3253.031170,N,11712.143574,W,59.4,166.5,220310,,,A*4E
$GPRMC,015636.9,A,3252.982232,N,11712.127784,W,59.7,165.5,220310,,,A*41
$GPRMC,015639.9,A,3252.933322,N,11712.114484,W,61.1,167.2,220310,,,A*4F
$GPRMC,015642.9,A,3252.883033,N,11712.099056,W,62.7,166.5,220310,,,A*46
$GPRMC,015645.9,A,3252.833524,N,11712.087646,W,59.9,168.4,220310,,,A*48
$GPRMC,015648.9,A,3252.786044,N,11712.078467,W,55.6,171.0,220310,,,A*49
$GPRMC,015651.9,A,3252.739804,N,11712.069674,W,52.8,169.6,220310,,,A*4F
$GPRMC,015654.9,A,3252.699897,N,11712.058340,W,48.6,168.3,220310,,,A*4A
$GPRMC,015657.9,A,3252.660069,N,11712.050151,W,48.1,170.5,220310,,,A*44
$GPRMC,015700.9,A,3252.621394,N,11712.046073,W,45.4,177.2,220310,,,A*4D
$GPRMC,015703.9,A,3252.584092,N,11712.051326,W,44.5,190.0,220310,,,A*49
$GPRMC,015706.9,A,3252.549008,N,11712.065856,W,43.9,198.4,220310,,,A*42
$GPRMC,015709.9,A,3252.522178,N,11712.096121,W,42.7,219.9,220310,,,A*4B
$GPRMC,015712.9,A,3252.499584,N,11712.129855,W,42.8,229.5,220310,,,A*48
$GPRMC,015715.9,A,3252.485078,N,11712.163602,W,38.6,238.9,220310,,,A*49
$GPRMC,015718.9,A,3252.481029,N,11712.202824,W,39.1,254.9,220310,,,A*46
$GPRMC,015721.9,A,3252.481644,N,11712.244580,W,39.6,260.6,220310,,,A*4F
$GPRMC,015724.9,A,3252.478148,N,11712.283410,W,38.7,260.8,220310,,,A*4A
$GPRMC,015727.9,A,3252.473242,N,11712.319274,W,37.8,259.7,220310,,,A*48
$GPRMC,015730.9,A,3252.468606,N,11712.356340,W,36.2,261.3,220310,,,A*49
$GPRMC,015733.9,A,3252.463145,N,11712.388608,W,33.0,261.5,220310,,,A*4A
$GPRMC,015736.9,A,3252.462790,N,11712.417420,W,26.8,264.1,220310,,,A*44
$GPRMC,015739.9,A,3252.464062,N,11712.432212,W,18.9,267.5,220310,,,A*4C
$GPRMC,015742.9,A,3252.464374,N,11712.437148,W,8.5,266.9,220310,,,A*7D
$GPRMC,015754.9,A,3252.456650,N,11712.445255,W,13.0,259.0,220310,,,A*48
$GPRMC,015757.9,A,3252.453214,N,11712.465459,W,21.7,257.4,220310,,,A*4E
$GPRMC,015800.9,A,3252.447173,N,11712.493658,W,26.7,259.7,220310,,,A*44
$GPRMC,015803.9,A,3252.442932,N,11712.518752,W,25.9,259.5,220310,,,A*49
$GPRMC,015806.9,A,3252.437806,N,11712.539879,W,22.4,257.7,220310,,,A*4B
$GPRMC,015809.9,A,3252.435257,N,11712.556925,W,14.3,259.9,220310,,,A*4B
$GPRMC,015812.9,A,3252.433800,N,11712.563002,W,4.4,258.6,220310,,,A*7D
